[{
    "lat": 25.5401941,
    "lng": -103.4555456,
    "name": "MARTE - cocina•café•espacio",
    "formatted_address": "Av Matamoros 585, Primero de Cobián Centro, Torreón"
}, {
    "lat": 25.5429247,
    "lng": -103.4495288,
    "name": "La Ofrenda Concept Store y Café",
    "formatted_address": "Rayon 184, Constancia, Torreón"
}, {
    "lat": 25.5618731,
    "lng": -103.4193519,
    "name": "BellaCuba.17",
    "formatted_address": "27010, Río Mayo 1090, Magdalenas, Torreón"
}, {
    "lat": 25.5385499,
    "lng": -103.457478,
    "name": "Cafetería Desayunos Ligeros",
    "formatted_address": "Benito Juárez 774, Centro, Torreón"
}, {
    "lat": 25.5411782,
    "lng": -103.4522119,
    "name": "Cafe y Bar Tumbao",
    "formatted_address": "Av Allende 255, Primero de Cobián Centro, Torreón"
}, {
    "lat": 25.542092,
    "lng": -103.4471459,
    "name": "Mongolian Restaurante Oriental",
    "formatted_address": "Av Abasolo 124-5, Primero de Cobián Centro, Torreón"
}, {
    "lat": 25.5399143,
    "lng": -103.4434472,
    "name": "Bondi",
    "formatted_address": "Calle García Carrillo #126, Primero de Cobián Centro, Torreón"
}, {
    "lat": 25.5788081,
    "lng": -103.4033758,
    "name": "Sausalito Café",
    "formatted_address": "Blvrd Independencia 3080, Residencial el Fresno, Torreón"
}, {
    "lat": 25.5389242,
    "lng": -103.4484662,
    "name": "Kingans",
    "formatted_address": "Calz Cristobal Colón 245, Segundo de Cobián Centro, Torreón"
}, {
    "lat": 25.5348531,
    "lng": -103.4230313,
    "name": "Pronto Restaurante Torreón Jardín",
    "formatted_address": "Plaza Santa Maria, Blvrd Revolución 2360, Torreón Jardín, Torreón"
}, {
    "lat": 25.5335762,
    "lng": -103.4186436,
    "name": "Casa de mi Abuela",
    "formatted_address": "Av. Citlatepetl 790, Torreón Jardín, Torreón"
}, {
    "lat": 25.5438511,
    "lng": -103.4497064,
    "name": "Soul & Balanzze Centro",
    "formatted_address": "Rayon 287, Primero de Cobián Centro, Torreón"
}, {
    "lat": 25.5686486,
    "lng": -103.4244197,
    "name": "Kingans",
    "formatted_address": "Blvrd Independencia 2295, San Isidro, Torreón"
}, {
    "lat": 25.544015,
    "lng": -103.4542875,
    "name": "Mar y Tierra",
    "formatted_address": "Av. Escobedo 453, Centro, Torreón"
}, {
    "lat": 25.5595575,
    "lng": -103.433072,
    "name": "Gourmet Cimaco",
    "formatted_address": "Blvrd Independencia 1300, Navarro, Torreón"
}, {
    "lat": 25.5478508,
    "lng": -103.4535769,
    "name": "Cochinita pibil",
    "formatted_address": "Amp los Ángeles, Torreón"
}, {
    "lat": 25.5420857,
    "lng": -103.4508491,
    "name": "Gorditas y comida corrida Mary",
    "formatted_address": "Av Abasolo 123, Primero de Cobián Centro, Torreón"
}, {
    "lat": 25.5417303,
    "lng": -103.453836,
    "name": "Pa' Asarla Agusto",
    "formatted_address": "Calle Ramón Corona 37, Primero de Cobián Centro, Torreón"
}, {
    "lat": 25.5456097,
    "lng": -103.4549027,
    "name": "D' Enrique",
    "formatted_address": "Av Simon Bolívar 517, Moderna, Torreón"
}, {
    "lat": 25.5813063,
    "lng": -103.4033344,
    "name": "Sushi Itto Galerias",
    "formatted_address": "Galerías Laguna Local 149, Periferico Raul Lopez Sanchez 6000, Residencial el Fresno, Torreón"
}]
